[{"id":"santos","label_en":"Santos port","name_pt":"Santos","entity_type":"sea_port","corridor":"south","lat":-23.95,"lon":-46.33,"role":"Southern export endpoint","datasets":[],"water_station_id":null,"has_water":false,"has_flow":true,"has_price_link":false,"water_status":"normal","description_en":"Brazil's largest southern sea-port benchmark for soy and corn exports.","caveats":"Southern benchmark endpoint; no local low-water shock assigned."},{"id":"paranagua","label_en":"Paranagua port","name_pt":"Paranaguá","entity_type":"sea_port","corridor":"south","lat":-25.5,"lon":-48.52,"role":"Southern export endpoint","datasets":[],"water_station_id":null,"has_water":false,"has_flow":true,"has_price_link":false,"water_status":"normal","description_en":"Southern export endpoint and benchmark for producer-price basis comparisons.","caveats":"Southern benchmark endpoint; no local low-water shock assigned."},{"id":"rio_grande","label_en":"Rio Grande port","name_pt":"Rio Grande","entity_type":"sea_port","corridor":"south","lat":-32.03,"lon":-52.08,"role":"Southern export endpoint","datasets":[],"water_station_id":null,"has_water":false,"has_flow":true,"has_price_link":false,"water_status":"normal","description_en":"Southern comparison port in Rio Grande do Sul.","caveats":"Southern benchmark endpoint; no linked water series in the v3 dashboard spine."},{"id":"sao_luis","label_en":"Sao Luis / Itaqui port","name_pt":"São Luís / Itaqui","entity_type":"sea_port","corridor":"north","lat":-2.58,"lon":-44.37,"role":"Arco Norte sea-port endpoint","datasets":[],"water_station_id":null,"has_water":false,"has_flow":true,"has_price_link":false,"water_status":"normal","description_en":"Northern export endpoint serving Cerrado grain through road and rail corridors.","caveats":"Endpoint layer; not the same as inland water-leg exposure."},{"id":"barcarena","label_en":"Barcarena / Vila do Conde port","name_pt":"Barcarena / Vila do Conde","entity_type":"sea_port","corridor":"north","lat":-1.52,"lon":-48.75,"role":"Arco Norte sea-port endpoint","datasets":[],"water_station_id":null,"has_water":false,"has_flow":true,"has_price_link":false,"water_status":"normal","description_en":"Lower Amazon export endpoint receiving barge flows from Tapajos corridors.","caveats":"No usable local gauge; do not assign zero shock."},{"id":"santarem","label_en":"Santarem port","name_pt":"Santarém","entity_type":"sea_port","corridor":"tapajos","lat":-2.43,"lon":-54.7,"role":"Tapajos/Amazon endpoint","datasets":[],"water_station_id":"17900000","has_water":true,"has_flow":true,"has_price_link":false,"water_status":"normal","description_en":"Tapajos-Amazon river port and final export endpoint for some northern grain flows.","caveats":"Gauge may include lower Amazon/tidal features."},{"id":"manaus","label_en":"Manaus port","name_pt":"Manaus","entity_type":"sea_port","corridor":"amazon","lat":-3.14,"lon":-60.02,"role":"Amazon mainstem port","datasets":[],"water_station_id":"14990000","has_water":true,"has_flow":true,"has_price_link":false,"water_status":"normal","description_en":"Amazon mainstem port and industrial import node with a documented 17.7 m surcharge trigger.","caveats":"Important for imports and mainstem operations; not a pure grain export hub."},{"id":"itacoatiara","label_en":"Itacoatiara port","name_pt":"Itacoatiara","entity_type":"sea_port","corridor":"madeira","lat":-3.14,"lon":-58.44,"role":"Madeira/Amazon endpoint","datasets":[],"water_station_id":"16030000","has_water":true,"has_flow":true,"has_price_link":false,"water_status":"normal","description_en":"Downstream Madeira-Amazon endpoint for barge-to-ocean grain logistics.","caveats":"Station represents a downstream leg, not Porto Velho conditions."},{"id":"belem","label_en":"Belem port","name_pt":"Belém","entity_type":"sea_port","corridor":"north","lat":-1.45,"lon":-48.5,"role":"Amazon endpoint","datasets":[],"water_station_id":null,"has_water":false,"has_flow":true,"has_price_link":false,"water_status":"normal","description_en":"Lower Amazon port in the northern export system.","caveats":"Endpoint layer; local gauge not used."},{"id":"santana","label_en":"Santana port","name_pt":"Santana","entity_type":"sea_port","corridor":"north","lat":-0.05,"lon":-51.18,"role":"Amazon endpoint","datasets":[],"water_station_id":null,"has_water":false,"has_flow":true,"has_price_link":false,"water_status":"normal","description_en":"Amapa-side Amazon export endpoint.","caveats":"Endpoint layer; local gauge not used."},{"id":"vitoria","label_en":"Vitoria port","name_pt":"Vitória","entity_type":"sea_port","corridor":"south","lat":-20.32,"lon":-40.34,"role":"Southern/eastern endpoint","datasets":[],"water_station_id":null,"has_water":false,"has_flow":true,"has_price_link":false,"water_status":"normal","description_en":"Eastern seaport used as a comparison endpoint in Comex classifications.","caveats":"Not a northern water-leg shock."},{"id":"salvador","label_en":"Salvador port","name_pt":"Salvador","entity_type":"sea_port","corridor":"other","lat":-12.97,"lon":-38.52,"role":"Other endpoint","datasets":[],"water_station_id":null,"has_water":false,"has_flow":true,"has_price_link":false,"water_status":"normal","description_en":"Northeast sea port included for port completeness.","caveats":"Not central to the grain corridor design."},{"id":"sao_francisco_sul","label_en":"Sao Francisco do Sul port","name_pt":"São Francisco do Sul","entity_type":"sea_port","corridor":"south","lat":-26.24,"lon":-48.64,"role":"Southern endpoint","datasets":[],"water_station_id":null,"has_water":false,"has_flow":true,"has_price_link":false,"water_status":"normal","description_en":"Southern grain-relevant export endpoint.","caveats":"Comparison endpoint."},{"id":"imbituba","label_en":"Imbituba port","name_pt":"Imbituba","entity_type":"sea_port","corridor":"south","lat":-28.23,"lon":-48.67,"role":"Southern endpoint","datasets":[],"water_station_id":null,"has_water":false,"has_flow":true,"has_price_link":false,"water_status":"normal","description_en":"Southern PortWatch/port layer endpoint.","caveats":"Comparison endpoint."},{"id":"itapoa","label_en":"Itapoa port","name_pt":"Itapoá","entity_type":"sea_port","corridor":"south","lat":-26.12,"lon":-48.61,"role":"Southern endpoint","datasets":[],"water_station_id":null,"has_water":false,"has_flow":true,"has_price_link":false,"water_status":"normal","description_en":"Southern PortWatch endpoint included for completeness.","caveats":"Comparison endpoint."},{"id":"miritituba","label_en":"Miritituba transshipment hub","name_pt":"Miritituba","entity_type":"river_hub","corridor":"tapajos","lat":-4.28,"lon":-55.96,"role":"Barge-loading hub","datasets":[],"water_station_id":"17730000","has_water":true,"has_flow":true,"has_price_link":true,"water_status":"normal","description_en":"Barge-loading terminal on the Tapajos where Mato Grosso trucks transfer grain to river barges.","caveats":"Hub layer; not a final port_of_export in Trase."},{"id":"itaituba","label_en":"Itaituba / Tapajos gauge","name_pt":"Itaituba","entity_type":"river_hub","corridor":"tapajos","lat":-4.27,"lon":-55.99,"role":"Tapajos water-leg gauge area","datasets":[],"water_station_id":"17730000","has_water":true,"has_flow":true,"has_price_link":true,"water_status":"normal","description_en":"Tapajos river node used to measure the water leg serving Miritituba transshipment.","caveats":"Gauge/hub layer; not a meaningful final export endpoint."},{"id":"porto_velho","label_en":"Porto Velho transshipment hub","name_pt":"Porto Velho","entity_type":"river_hub","corridor":"madeira","lat":-8.76,"lon":-63.9,"role":"Madeira barge-loading hub","datasets":[],"water_station_id":"15400000","has_water":true,"has_flow":true,"has_price_link":true,"water_status":"normal","description_en":"Madeira River transshipment hub where western Mato Grosso and Rondonia grain enters barges.","caveats":"Hub layer; 4 m rule needs station-datum caveat."},{"id":"corumba_ladario","label_en":"Corumba / Ladario river complex","name_pt":"Corumbá / Ladário","entity_type":"river_hub","corridor":"paraguay","lat":-19.01,"lon":-57.65,"role":"Paraguay river hub","datasets":[],"water_station_id":"66825000","has_water":true,"has_flow":true,"has_price_link":false,"water_status":"normal","description_en":"Upper Paraguay river port complex, hydrologically separate from the Amazon corridors.","caveats":"Include Ladario when matching tonnage."},{"id":"porto_murtinho","label_en":"Porto Murtinho river port","name_pt":"Porto Murtinho","entity_type":"river_hub","corridor":"paraguay","lat":-21.7,"lon":-57.88,"role":"Paraguay river node","datasets":[],"water_station_id":null,"has_water":false,"has_flow":true,"has_price_link":false,"water_status":"normal","description_en":"Paraguay river node included for corridor completeness.","caveats":"Coverage is partial."}]